[
  {
    "name": "New York",
    "country": "United States",
    "state": "New York",
    "type": "city",
    "iata": "NYC",
    "popularity": 100,
    "lat": 40.7128,
    "lng": -74.0060,
    "primaryAirport": "JFK"
  },
  {
    "name": "Los Angeles",
    "country": "United States",
    "state": "California",
    "type": "city",
    "iata": "LAX",
    "popularity": 98,
    "lat": 34.0522,
    "lng": -118.2437,
    "primaryAirport": "LAX"
  },
  {
    "name": "Chicago",
    "country": "United States",
    "state": "Illinois",
    "type": "city",
    "iata": "ORD",
    "popularity": 95,
    "lat": 41.8781,
    "lng": -87.6298,
    "primaryAirport": "ORD"
  },
  {
    "name": "Dallas",
    "country": "United States",
    "state": "Texas",
    "type": "city",
    "iata": "DFW",
    "popularity": 90,
    "lat": 32.7767,
    "lng": -96.7970,
    "primaryAirport": "DFW"
  },
  {
    "name": "Denver",
    "country": "United States",
    "state": "Colorado",
    "type": "city",
    "iata": "DEN",
    "popularity": 85,
    "lat": 39.7392,
    "lng": -104.9903,
    "primaryAirport": "DEN"
  },
  {
    "name": "San Francisco",
    "country": "United States",
    "state": "California",
    "type": "city",
    "iata": "SFO",
    "popularity": 92,
    "lat": 37.7749,
    "lng": -122.4194,
    "primaryAirport": "SFO"
  },
  {
    "name": "Miami",
    "country": "United States",
    "state": "Florida",
    "type": "city",
    "iata": "MIA",
    "popularity": 88,
    "lat": 25.7617,
    "lng": -80.1918,
    "primaryAirport": "MIA"
  },
  {
    "name": "Boston",
    "country": "United States",
    "state": "Massachusetts",
    "type": "city",
    "iata": "BOS",
    "popularity": 85,
    "lat": 42.3601,
    "lng": -71.0589,
    "primaryAirport": "BOS"
  },
  {
    "name": "Seattle",
    "country": "United States",
    "state": "Washington",
    "type": "city",
    "iata": "SEA",
    "popularity": 80,
    "lat": 47.6062,
    "lng": -122.3321,
    "primaryAirport": "SEA"
  },
  {
    "name": "Las Vegas",
    "country": "United States",
    "state": "Nevada",
    "type": "city",
    "iata": "LAS",
    "popularity": 90,
    "lat": 36.1699,
    "lng": -115.1398,
    "primaryAirport": "LAS"
  },
  {
    "name": "Orlando",
    "country": "United States",
    "state": "Florida",
    "type": "city",
    "iata": "MCO",
    "popularity": 85,
    "lat": 28.5421,
    "lng": -81.3723,
    "primaryAirport": "MCO"
  },
  {
    "name": "San Diego",
    "country": "United States",
    "state": "California",
    "type": "city",
    "iata": "SAN",
    "popularity": 82,
    "lat": 32.7157,
    "lng": -117.1611,
    "primaryAirport": "SAN"
  },
  {
    "name": "London",
    "country": "United Kingdom",
    "state": "England",
    "type": "city",
    "iata": "LHR",
    "popularity": 100,
    "lat": 51.5074,
    "lng": -0.1278,
    "primaryAirport": "LHR"
  },
  {
    "name": "Paris",
    "country": "France",
    "state": "Île-de-France",
    "type": "city",
    "iata": "CDG",
    "popularity": 99,
    "lat": 48.8566,
    "lng": 2.3522,
    "primaryAirport": "CDG"
  },
  {
    "name": "Barcelona",
    "country": "Spain",
    "state": "Catalonia",
    "type": "city",
    "iata": "BCN",
    "popularity": 95,
    "lat": 41.3851,
    "lng": 2.1734,
    "primaryAirport": "BCN"
  },
  {
    "name": "Madrid",
    "country": "Spain",
    "state": "Madrid",
    "type": "city",
    "iata": "MAD",
    "popularity": 92,
    "lat": 40.4168,
    "lng": -3.7038,
    "primaryAirport": "MAD"
  },
  {
    "name": "Rome",
    "country": "Italy",
    "state": "Lazio",
    "type": "city",
    "iata": "FCO",
    "popularity": 98,
    "lat": 41.9028,
    "lng": 12.4964,
    "primaryAirport": "FCO"
  },
  {
    "name": "Venice",
    "country": "Italy",
    "state": "Veneto",
    "type": "city",
    "iata": "VCE",
    "popularity": 90,
    "lat": 45.4408,
    "lng": 12.3155,
    "primaryAirport": "VCE"
  },
  {
    "name": "Florence",
    "country": "Italy",
    "state": "Tuscany",
    "type": "city",
    "iata": "FLR",
    "popularity": 88,
    "lat": 43.7695,
    "lng": 11.2558,
    "primaryAirport": "FLR"
  },
  {
    "name": "Milan",
    "country": "Italy",
    "state": "Lombardy",
    "type": "city",
    "iata": "MIL",
    "popularity": 85,
    "lat": 45.4642,
    "lng": 9.1900,
    "primaryAirport": "MIL"
  },
  {
    "name": "Amsterdam",
    "country": "Netherlands",
    "state": "North Holland",
    "type": "city",
    "iata": "AMS",
    "popularity": 92,
    "lat": 52.3676,
    "lng": 4.9041,
    "primaryAirport": "AMS"
  },
  {
    "name": "Berlin",
    "country": "Germany",
    "state": "Berlin",
    "type": "city",
    "iata": "BER",
    "popularity": 88,
    "lat": 52.5200,
    "lng": 13.4050,
    "primaryAirport": "BER"
  },
  {
    "name": "Vienna",
    "country": "Austria",
    "state": "Vienna",
    "type": "city",
    "iata": "VIE",
    "popularity": 85,
    "lat": 48.2082,
    "lng": 16.3738,
    "primaryAirport": "VIE"
  },
  {
    "name": "Prague",
    "country": "Czech Republic",
    "state": "Prague",
    "type": "city",
    "iata": "PRG",
    "popularity": 88,
    "lat": 50.0755,
    "lng": 14.4378,
    "primaryAirport": "PRG"
  },
  {
    "name": "Istanbul",
    "country": "Turkey",
    "state": "Istanbul",
    "type": "city",
    "iata": "IST",
    "popularity": 90,
    "lat": 41.0082,
    "lng": 28.9784,
    "primaryAirport": "IST"
  },
  {
    "name": "Dubai",
    "country": "United Arab Emirates",
    "state": "Dubai",
    "type": "city",
    "iata": "DXB",
    "popularity": 92,
    "lat": 25.2048,
    "lng": 55.2708,
    "primaryAirport": "DXB"
  },
  {
    "name": "Tokyo",
    "country": "Japan",
    "state": "Tokyo",
    "type": "city",
    "iata": "NRT",
    "popularity": 98,
    "lat": 35.6762,
    "lng": 139.6503,
    "primaryAirport": "NRT"
  },
  {
    "name": "Kyoto",
    "country": "Japan",
    "state": "Kyoto",
    "type": "city",
    "iata": "KIX",
    "popularity": 88,
    "lat": 35.0116,
    "lng": 135.7681,
    "primaryAirport": "KIX"
  },
  {
    "name": "Osaka",
    "country": "Japan",
    "state": "Osaka",
    "type": "city",
    "iata": "KIX",
    "popularity": 85,
    "lat": 34.6937,
    "lng": 135.5023,
    "primaryAirport": "KIX"
  },
  {
    "name": "Bangkok",
    "country": "Thailand",
    "state": "Bangkok",
    "type": "city",
    "iata": "BKK",
    "popularity": 92,
    "lat": 13.7563,
    "lng": 100.5018,
    "primaryAirport": "BKK"
  },
  {
    "name": "Singapore",
    "country": "Singapore",
    "state": "Singapore",
    "type": "city",
    "iata": "SIN",
    "popularity": 90,
    "lat": 1.3521,
    "lng": 103.8198,
    "primaryAirport": "SIN"
  },
  {
    "name": "Hong Kong",
    "country": "Hong Kong",
    "state": "Hong Kong",
    "type": "city",
    "iata": "HKG",
    "popularity": 92,
    "lat": 22.3193,
    "lng": 114.1694,
    "primaryAirport": "HKG"
  },
  {
    "name": "Shanghai",
    "country": "China",
    "state": "Shanghai",
    "type": "city",
    "iata": "PVG",
    "popularity": 90,
    "lat": 31.2304,
    "lng": 121.4737,
    "primaryAirport": "PVG"
  },
  {
    "name": "Beijing",
    "country": "China",
    "state": "Beijing",
    "type": "city",
    "iata": "PEK",
    "popularity": 88,
    "lat": 39.9042,
    "lng": 116.4074,
    "primaryAirport": "PEK"
  },
  {
    "name": "Delhi",
    "country": "India",
    "state": "Delhi",
    "type": "city",
    "iata": "DEL",
    "popularity": 82,
    "lat": 28.7041,
    "lng": 77.1025,
    "primaryAirport": "DEL"
  },
  {
    "name": "Mumbai",
    "country": "India",
    "state": "Maharashtra",
    "type": "city",
    "iata": "BOM",
    "popularity": 85,
    "lat": 19.0760,
    "lng": 72.8777,
    "primaryAirport": "BOM"
  },
  {
    "name": "Bangalore",
    "country": "India",
    "state": "Karnataka",
    "type": "city",
    "iata": "BLR",
    "popularity": 78,
    "lat": 12.9716,
    "lng": 77.5946,
    "primaryAirport": "BLR"
  },
  {
    "name": "Sydney",
    "country": "Australia",
    "state": "New South Wales",
    "type": "city",
    "iata": "SYD",
    "popularity": 95,
    "lat": -33.8688,
    "lng": 151.2093,
    "primaryAirport": "SYD"
  },
  {
    "name": "Melbourne",
    "country": "Australia",
    "state": "Victoria",
    "type": "city",
    "iata": "MEL",
    "popularity": 90,
    "lat": -37.8136,
    "lng": 144.9631,
    "primaryAirport": "MEL"
  },
  {
    "name": "Toronto",
    "country": "Canada",
    "state": "Ontario",
    "type": "city",
    "iata": "YYZ",
    "popularity": 88,
    "lat": 43.6532,
    "lng": -79.3832,
    "primaryAirport": "YYZ"
  },
  {
    "name": "Vancouver",
    "country": "Canada",
    "state": "British Columbia",
    "type": "city",
    "iata": "YVR",
    "popularity": 88,
    "lat": 49.2827,
    "lng": -123.1207,
    "primaryAirport": "YVR"
  },
  {
    "name": "Mexico City",
    "country": "Mexico",
    "state": "Mexico City",
    "type": "city",
    "iata": "MEX",
    "popularity": 85,
    "lat": 19.4326,
    "lng": -99.1332,
    "primaryAirport": "MEX"
  },
  {
    "name": "Rio de Janeiro",
    "country": "Brazil",
    "state": "Rio de Janeiro",
    "type": "city",
    "iata": "GIG",
    "popularity": 92,
    "lat": -22.9068,
    "lng": -43.1729,
    "primaryAirport": "GIG"
  },
  {
    "name": "Buenos Aires",
    "country": "Argentina",
    "state": "Buenos Aires",
    "type": "city",
    "iata": "EZE",
    "popularity": 88,
    "lat": -34.6037,
    "lng": -58.3816,
    "primaryAirport": "EZE"
  },
  {
    "name": "Cairo",
    "country": "Egypt",
    "state": "Cairo",
    "type": "city",
    "iata": "CAI",
    "popularity": 82,
    "lat": 30.0444,
    "lng": 31.2357,
    "primaryAirport": "CAI"
  },
  {
    "name": "Lagos",
    "country": "Nigeria",
    "state": "Lagos",
    "type": "city",
    "iata": "LOS",
    "popularity": 75,
    "lat": 6.5244,
    "lng": 3.3792,
    "primaryAirport": "LOS"
  },
  {
    "name": "Cape Town",
    "country": "South Africa",
    "state": "Western Cape",
    "type": "city",
    "iata": "CPT",
    "popularity": 88,
    "lat": -33.9249,
    "lng": 18.4241,
    "primaryAirport": "CPT"
  },
  {
    "name": "Johannesburg",
    "country": "South Africa",
    "state": "Gauteng",
    "type": "city",
    "iata": "JNB",
    "popularity": 82,
    "lat": -26.1367,
    "lng": 28.1949,
    "primaryAirport": "JNB"
  },
  {
    "name": "New York",
    "country": "United States",
    "type": "city",
    "iata": "NYC",
    "popularity": 100,
    "lat": 40.7128,
    "lng": -74.0060,
    "state": "New York"
  },
  {
    "name": "Los Angeles",
    "country": "United States",
    "type": "city",
    "iata": "LAX",
    "popularity": 95,
    "lat": 34.0522,
    "lng": -118.2437,
    "state": "California"
  },
  {
    "name": "Chicago",
    "country": "United States",
    "type": "city",
    "iata": "CHI",
    "popularity": 85,
    "lat": 41.8781,
    "lng": -87.6298,
    "state": "Illinois"
  },
  {
    "name": "London",
    "country": "United Kingdom",
    "type": "city",
    "iata": "LON",
    "popularity": 98,
    "lat": 51.5074,
    "lng": -0.1278,
    "state": "England"
  },
  {
    "name": "Paris",
    "country": "France",
    "type": "city",
    "iata": "PAR",
    "popularity": 96,
    "lat": 48.8566,
    "lng": 2.3522,
    "state": "Île-de-France"
  },
  {
    "name": "Tokyo",
    "country": "Japan",
    "type": "city",
    "iata": "TYO",
    "popularity": 94,
    "lat": 35.6762,
    "lng": 139.6503,
    "state": "Tokyo"
  },
  {
    "name": "Dubai",
    "country": "United Arab Emirates",
    "type": "city",
    "iata": "DXB",
    "popularity": 88,
    "lat": 25.2048,
    "lng": 55.2708,
    "state": "Dubai"
  },
  {
    "name": "Singapore",
    "country": "Singapore",
    "type": "city",
    "iata": "SIN",
    "popularity": 86,
    "lat": 1.3521,
    "lng": 103.8198,
    "state": null
  },
  {
    "name": "Hong Kong",
    "country": "Hong Kong",
    "type": "city",
    "iata": "HKG",
    "popularity": 87,
    "lat": 22.3193,
    "lng": 114.1694,
    "state": null
  },
  {
    "name": "Sydney",
    "country": "Australia",
    "type": "city",
    "iata": "SYD",
    "popularity": 82,
    "lat": -33.8688,
    "lng": 151.2093,
    "state": "New South Wales"
  },
  {
    "name": "Mumbai",
    "country": "India",
    "type": "city",
    "iata": "BOM",
    "popularity": 90,
    "lat": 19.0760,
    "lng": 72.8777,
    "state": "Maharashtra"
  },
  {
    "name": "Delhi",
    "country": "India",
    "type": "city",
    "iata": "DEL",
    "popularity": 89,
    "lat": 28.7041,
    "lng": 77.1025,
    "state": "Delhi"
  },
  {
    "name": "Bangalore",
    "country": "India",
    "type": "city",
    "iata": "BLR",
    "popularity": 78,
    "lat": 12.9716,
    "lng": 77.5946,
    "state": "Karnataka"
  },
  {
    "name": "Chennai",
    "country": "India",
    "type": "city",
    "iata": "MAA",
    "popularity": 75,
    "lat": 13.0827,
    "lng": 80.2707,
    "state": "Tamil Nadu"
  },
  {
    "name": "Kolkata",
    "country": "India",
    "type": "city",
    "iata": "CCU",
    "popularity": 72,
    "lat": 22.5726,
    "lng": 88.3639,
    "state": "West Bengal"
  },
  {
    "name": "Hyderabad",
    "country": "India",
    "type": "city",
    "iata": "HYD",
    "popularity": 76,
    "lat": 17.3850,
    "lng": 78.4867,
    "state": "Telangana"
  },
  {
    "name": "Pune",
    "country": "India",
    "type": "city",
    "iata": "PNQ",
    "popularity": 70,
    "lat": 18.5204,
    "lng": 73.8567,
    "state": "Maharashtra"
  },
  {
    "name": "Ahmedabad",
    "country": "India",
    "type": "city",
    "iata": "AMD",
    "popularity": 65,
    "lat": 23.0225,
    "lng": 72.5714,
    "state": "Gujarat"
  },
  {
    "name": "Jaipur",
    "country": "India",
    "type": "city",
    "iata": "JAI",
    "popularity": 68,
    "lat": 26.9124,
    "lng": 75.7873,
    "state": "Rajasthan"
  },
  {
    "name": "Bangkok",
    "country": "Thailand",
    "type": "city",
    "iata": "BKK",
    "popularity": 84,
    "lat": 13.7563,
    "lng": 100.5018,
    "state": "Bangkok"
  },
  {
    "name": "Seoul",
    "country": "South Korea",
    "type": "city",
    "iata": "SEL",
    "popularity": 83,
    "lat": 37.5665,
    "lng": 126.9780,
    "state": "Seoul"
  },
  {
    "name": "Jakarta",
    "country": "Indonesia",
    "type": "city",
    "iata": "JKT",
    "popularity": 77,
    "lat": -6.2088,
    "lng": 106.8456,
    "state": "Jakarta"
  },
  {
    "name": "Manila",
    "country": "Philippines",
    "type": "city",
    "iata": "MNL",
    "popularity": 74,
    "lat": 14.5995,
    "lng": 120.9842,
    "state": "Metro Manila"
  },
  {
    "name": "Kuala Lumpur",
    "country": "Malaysia",
    "type": "city",
    "iata": "KUL",
    "popularity": 79,
    "lat": 3.1390,
    "lng": 101.6869,
    "state": "Kuala Lumpur"
  },
  {
    "name": "Shanghai",
    "country": "China",
    "type": "city",
    "iata": "SHA",
    "popularity": 91,
    "lat": 31.2304,
    "lng": 121.4737,
    "state": "Shanghai"
  },
  {
    "name": "Beijing",
    "country": "China",
    "type": "city",
    "iata": "BJS",
    "popularity": 92,
    "lat": 39.9042,
    "lng": 116.4074,
    "state": "Beijing"
  },
  {
    "name": "Guangzhou",
    "country": "China",
    "type": "city",
    "iata": "CAN",
    "popularity": 73,
    "lat": 23.1291,
    "lng": 113.2644,
    "state": "Guangdong"
  },
  {
    "name": "Shenzhen",
    "country": "China",
    "type": "city",
    "iata": "SZX",
    "popularity": 71,
    "lat": 22.5431,
    "lng": 114.0579,
    "state": "Guangdong"
  },
  {
    "name": "Toronto",
    "country": "Canada",
    "type": "city",
    "iata": "YTO",
    "popularity": 80,
    "lat": 43.6532,
    "lng": -79.3832,
    "state": "Ontario"
  },
  {
    "name": "Vancouver",
    "country": "Canada",
    "type": "city",
    "iata": "YVR",
    "popularity": 76,
    "lat": 49.2827,
    "lng": -123.1207,
    "state": "British Columbia"
  },
  {
    "name": "Montreal",
    "country": "Canada",
    "type": "city",
    "iata": "YMQ",
    "popularity": 72,
    "lat": 45.5017,
    "lng": -73.5673,
    "state": "Quebec"
  },
  {
    "name": "Mexico City",
    "country": "Mexico",
    "type": "city",
    "iata": "MEX",
    "popularity": 81,
    "lat": 19.4326,
    "lng": -99.1332,
    "state": "Mexico City"
  },
  {
    "name": "São Paulo",
    "country": "Brazil",
    "type": "city",
    "iata": "SAO",
    "popularity": 85,
    "lat": -23.5505,
    "lng": -46.6333,
    "state": "São Paulo"
  },
  {
    "name": "Rio de Janeiro",
    "country": "Brazil",
    "type": "city",
    "iata": "RIO",
    "popularity": 83,
    "lat": -22.9068,
    "lng": -43.1729,
    "state": "Rio de Janeiro"
  },
  {
    "name": "Buenos Aires",
    "country": "Argentina",
    "type": "city",
    "iata": "BUE",
    "popularity": 77,
    "lat": -34.6037,
    "lng": -58.3816,
    "state": "Buenos Aires"
  },
  {
    "name": "Cairo",
    "country": "Egypt",
    "type": "city",
    "iata": "CAI",
    "popularity": 78,
    "lat": 30.0444,
    "lng": 31.2357,
    "state": "Cairo"
  },
  {
    "name": "Lagos",
    "country": "Nigeria",
    "type": "city",
    "iata": "LOS",
    "popularity": 71,
    "lat": 6.5244,
    "lng": 3.3792,
    "state": "Lagos"
  },
  {
    "name": "Cape Town",
    "country": "South Africa",
    "type": "city",
    "iata": "CPT",
    "popularity": 75,
    "lat": -33.9249,
    "lng": 18.4241,
    "state": "Western Cape"
  },
  {
    "name": "Johannesburg",
    "country": "South Africa",
    "type": "city",
    "iata": "JNB",
    "popularity": 74,
    "lat": -26.2041,
    "lng": 28.0473,
    "state": "Gauteng"
  },
  {
    "name": "Moscow",
    "country": "Russia",
    "type": "city",
    "iata": "MOW",
    "popularity": 82,
    "lat": 55.7558,
    "lng": 37.6173,
    "state": "Moscow"
  },
  {
    "name": "Istanbul",
    "country": "Turkey",
    "type": "city",
    "iata": "IST",
    "popularity": 86,
    "lat": 41.0082,
    "lng": 28.9784,
    "state": "Istanbul"
  },
  {
    "name": "Rome",
    "country": "Italy",
    "type": "city",
    "iata": "ROM",
    "popularity": 88,
    "lat": 41.9028,
    "lng": 12.4964,
    "state": "Lazio"
  },
  {
    "name": "Milan",
    "country": "Italy",
    "type": "city",
    "iata": "MIL",
    "popularity": 79,
    "lat": 45.4642,
    "lng": 9.1900,
    "state": "Lombardy"
  },
  {
    "name": "Barcelona",
    "country": "Spain",
    "type": "city",
    "iata": "BCN",
    "popularity": 87,
    "lat": 41.3851,
    "lng": 2.1734,
    "state": "Catalonia"
  },
  {
    "name": "Madrid",
    "country": "Spain",
    "type": "city",
    "iata": "MAD",
    "popularity": 84,
    "lat": 40.4168,
    "lng": -3.7038,
    "state": "Community of Madrid"
  },
  {
    "name": "Amsterdam",
    "country": "Netherlands",
    "type": "city",
    "iata": "AMS",
    "popularity": 85,
    "lat": 52.3676,
    "lng": 4.9041,
    "state": "North Holland"
  },
  {
    "name": "Berlin",
    "country": "Germany",
    "type": "city",
    "iata": "BER",
    "popularity": 83,
    "lat": 52.5200,
    "lng": 13.4050,
    "state": "Berlin"
  },
  {
    "name": "Frankfurt",
    "country": "Germany",
    "type": "city",
    "iata": "FRA",
    "popularity": 78,
    "lat": 50.1109,
    "lng": 8.6821,
    "state": "Hesse"
  },
  {
    "name": "Munich",
    "country": "Germany",
    "type": "city",
    "iata": "MUC",
    "popularity": 80,
    "lat": 48.1351,
    "lng": 11.5820,
    "state": "Bavaria"
  },
  {
    "name": "Vienna",
    "country": "Austria",
    "type": "city",
    "iata": "VIE",
    "popularity": 76,
    "lat": 48.2082,
    "lng": 16.3738,
    "state": "Vienna"
  },
  {
    "name": "Zurich",
    "country": "Switzerland",
    "type": "city",
    "iata": "ZRH",
    "popularity": 79,
    "lat": 47.3769,
    "lng": 8.5417,
    "state": "Zurich"
  },
  {
    "name": "Stockholm",
    "country": "Sweden",
    "type": "city",
    "iata": "STO",
    "popularity": 73,
    "lat": 59.3293,
    "lng": 18.0686,
    "state": "Stockholm"
  },
  {
    "name": "Copenhagen",
    "country": "Denmark",
    "type": "city",
    "iata": "CPH",
    "popularity": 74,
    "lat": 55.6761,
    "lng": 12.5683,
    "state": "Capital Region"
  },
  {
    "name": "Oslo",
    "country": "Norway",
    "type": "city",
    "iata": "OSL",
    "popularity": 71,
    "lat": 59.9139,
    "lng": 10.7522,
    "state": "Oslo"
  },
  {
    "name": "Helsinki",
    "country": "Finland",
    "type": "city",
    "iata": "HEL",
    "popularity": 70,
    "lat": 60.1699,
    "lng": 24.9384,
    "state": "Uusimaa"
  },
  {
    "name": "Warsaw",
    "country": "Poland",
    "type": "city",
    "iata": "WAW",
    "popularity": 72,
    "lat": 52.2297,
    "lng": 21.0122,
    "state": "Masovian"
  },
  {
    "name": "Prague",
    "country": "Czech Republic",
    "type": "city",
    "iata": "PRG",
    "popularity": 77,
    "lat": 50.0755,
    "lng": 14.4378,
    "state": "Prague"
  },
  {
    "name": "Budapest",
    "country": "Hungary",
    "type": "city",
    "iata": "BUD",
    "popularity": 74,
    "lat": 47.4979,
    "lng": 19.0402,
    "state": "Budapest"
  },
  {
    "name": "Athens",
    "country": "Greece",
    "type": "city",
    "iata": "ATH",
    "popularity": 75,
    "lat": 37.9838,
    "lng": 23.7275,
    "state": "Attica"
  },
  {
    "name": "Tel Aviv",
    "country": "Israel",
    "type": "city",
    "iata": "TLV",
    "popularity": 76,
    "lat": 32.0853,
    "lng": 34.7818,
    "state": "Tel Aviv"
  },
  {
    "name": "Dublin",
    "country": "Ireland",
    "type": "city",
    "iata": "DUB",
    "popularity": 78,
    "lat": 53.3498,
    "lng": -6.2603,
    "state": "Leinster"
  },
  {
    "name": "Brussels",
    "country": "Belgium",
    "type": "city",
    "iata": "BRU",
    "popularity": 75,
    "lat": 50.8503,
    "lng": 4.3517,
    "state": "Brussels-Capital"
  },
  {
    "name": "Lisbon",
    "country": "Portugal",
    "type": "city",
    "iata": "LIS",
    "popularity": 76,
    "lat": 38.7223,
    "lng": -9.1393,
    "state": "Lisbon"
  },
  {
    "name": "San Francisco",
    "country": "United States",
    "type": "city",
    "iata": "SFO",
    "popularity": 89,
    "lat": 37.7749,
    "lng": -122.4194,
    "state": "California"
  },
  {
    "name": "Seattle",
    "country": "United States",
    "type": "city",
    "iata": "SEA",
    "popularity": 81,
    "lat": 47.6062,
    "lng": -122.3321,
    "state": "Washington"
  },
  {
    "name": "Boston",
    "country": "United States",
    "type": "city",
    "iata": "BOS",
    "popularity": 82,
    "lat": 42.3601,
    "lng": -71.0589,
    "state": "Massachusetts"
  },
  {
    "name": "Miami",
    "country": "United States",
    "type": "city",
    "iata": "MIA",
    "popularity": 84,
    "lat": 25.7617,
    "lng": -80.1918,
    "state": "Florida"
  },
  {
    "name": "Dallas",
    "country": "United States",
    "type": "city",
    "iata": "DFW",
    "popularity": 79,
    "lat": 32.7767,
    "lng": -96.7970,
    "state": "Texas"
  },
  {
    "name": "Houston",
    "country": "United States",
    "type": "city",
    "iata": "IAH",
    "popularity": 77,
    "lat": 29.7604,
    "lng": -95.3698,
    "state": "Texas"
  },
  {
    "name": "Atlanta",
    "country": "United States",
    "type": "city",
    "iata": "ATL",
    "popularity": 80,
    "lat": 33.7490,
    "lng": -84.3880,
    "state": "Georgia"
  },
  {
    "name": "Denver",
    "country": "United States",
    "type": "city",
    "iata": "DEN",
    "popularity": 76,
    "lat": 39.7392,
    "lng": -104.9903,
    "state": "Colorado"
  },
  {
    "name": "Las Vegas",
    "country": "United States",
    "type": "city",
    "iata": "LAS",
    "popularity": 83,
    "lat": 36.1699,
    "lng": -115.1398,
    "state": "Nevada"
  },
  {
    "name": "Orlando",
    "country": "United States",
    "type": "city",
    "iata": "MCO",
    "popularity": 78,
    "lat": 28.5383,
    "lng": -81.3792,
    "state": "Florida"
  },
  {
    "name": "Philadelphia",
    "country": "United States",
    "type": "city",
    "iata": "PHL",
    "popularity": 74,
    "lat": 39.9526,
    "lng": -75.1652,
    "state": "Pennsylvania"
  },
  {
    "name": "Phoenix",
    "country": "United States",
    "type": "city",
    "iata": "PHX",
    "popularity": 75,
    "lat": 33.4484,
    "lng": -112.0740,
    "state": "Arizona"
  },
  {
    "name": "San Diego",
    "country": "United States",
    "type": "city",
    "iata": "SAN",
    "popularity": 79,
    "lat": 32.7157,
    "lng": -117.1611,
    "state": "California"
  },
  {
    "name": "Tampa",
    "country": "United States",
    "type": "city",
    "iata": "TPA",
    "popularity": 71,
    "lat": 27.9506,
    "lng": -82.4572,
    "state": "Florida"
  },
  {
    "name": "John F. Kennedy International Airport",
    "country": "United States",
    "type": "airport",
    "iata": "JFK",
    "popularity": 95,
    "lat": 40.6413,
    "lng": -73.7781,
    "state": "New York"
  },
  {
    "name": "Los Angeles International Airport",
    "country": "United States",
    "type": "airport",
    "iata": "LAX",
    "popularity": 94,
    "lat": 33.9425,
    "lng": -118.4081,
    "state": "California"
  },
  {
    "name": "Heathrow Airport",
    "country": "United Kingdom",
    "type": "airport",
    "iata": "LHR",
    "popularity": 93,
    "lat": 51.4700,
    "lng": -0.4543,
    "state": "England"
  },
  {
    "name": "Charles de Gaulle Airport",
    "country": "France",
    "type": "airport",
    "iata": "CDG",
    "popularity": 91,
    "lat": 49.0097,
    "lng": 2.5479,
    "state": "Île-de-France"
  },
  {
    "name": "Tokyo Haneda Airport",
    "country": "Japan",
    "type": "airport",
    "iata": "HND",
    "popularity": 89,
    "lat": 35.5533,
    "lng": 139.7811,
    "state": "Tokyo"
  },
  {
    "name": "Dubai International Airport",
    "country": "United Arab Emirates",
    "type": "airport",
    "iata": "DXB",
    "popularity": 87,
    "lat": 25.2532,
    "lng": 55.3657,
    "state": "Dubai"
  },
  {
    "name": "Singapore Changi Airport",
    "country": "Singapore",
    "type": "airport",
    "iata": "SIN",
    "popularity": 86,
    "lat": 1.3644,
    "lng": 103.9915,
    "state": null
  },
  {
    "name": "Hong Kong International Airport",
    "country": "Hong Kong",
    "type": "airport",
    "iata": "HKG",
    "popularity": 85,
    "lat": 22.3080,
    "lng": 113.9185,
    "state": null
  },
  {
    "name": "Sydney Kingsford Smith Airport",
    "country": "Australia",
    "type": "airport",
    "iata": "SYD",
    "popularity": 80,
    "lat": -33.9399,
    "lng": 151.1753,
    "state": "New South Wales"
  },
  {
    "name": "Chhatrapati Shivaji Maharaj International Airport",
    "country": "India",
    "type": "airport",
    "iata": "BOM",
    "popularity": 88,
    "lat": 19.0896,
    "lng": 72.8656,
    "state": "Maharashtra"
  },
  {
    "name": "Indira Gandhi International Airport",
    "country": "India",
    "type": "airport",
    "iata": "DEL",
    "popularity": 87,
    "lat": 28.5665,
    "lng": 77.1031,
    "state": "Delhi"
  },
  {
    "name": "Bangalore International Airport",
    "country": "India",
    "type": "airport",
    "iata": "BLR",
    "popularity": 76,
    "lat": 13.1986,
    "lng": 77.7066,
    "state": "Karnataka"
  },
  {
    "name": "Chennai International Airport",
    "country": "India",
    "type": "airport",
    "iata": "MAA",
    "popularity": 73,
    "lat": 12.9941,
    "lng": 80.1811,
    "state": "Tamil Nadu"
  },
  {
    "name": "Netaji Subhash Chandra Bose International Airport",
    "country": "India",
    "type": "airport",
    "iata": "CCU",
    "popularity": 70,
    "lat": 22.6548,
    "lng": 88.4466,
    "state": "West Bengal"
  },
  {
    "name": "Rajiv Gandhi International Airport",
    "country": "India",
    "type": "airport",
    "iata": "HYD",
    "popularity": 74,
    "lat": 17.2313,
    "lng": 78.4299,
    "state": "Telangana"
  },
  {
    "name": "Pune Airport",
    "country": "India",
    "type": "airport",
    "iata": "PNQ",
    "popularity": 68,
    "lat": 18.5822,
    "lng": 73.9197,
    "state": "Maharashtra"
  },
  {
    "name": "Sardar Vallabhbhai Patel International Airport",
    "country": "India",
    "type": "airport",
    "iata": "AMD",
    "popularity": 63,
    "lat": 23.0774,
    "lng": 72.6347,
    "state": "Gujarat"
  },
  {
    "name": "Jaipur International Airport",
    "country": "India",
    "type": "airport",
    "iata": "JAI",
    "popularity": 66,
    "lat": 26.8244,
    "lng": 75.8122,
    "state": "Rajasthan"
  },
  {
    "name": "Suvarnabhumi Airport",
    "country": "Thailand",
    "type": "airport",
    "iata": "BKK",
    "popularity": 82,
    "lat": 13.6900,
    "lng": 100.7501,
    "state": "Samut Prakan"
  },
  {
    "name": "Incheon International Airport",
    "country": "South Korea",
    "type": "airport",
    "iata": "ICN",
    "popularity": 81,
    "lat": 37.4631,
    "lng": 126.4406,
    "state": "Incheon"
  },
  {
    "name": "Soekarno-Hatta International Airport",
    "country": "Indonesia",
    "type": "airport",
    "iata": "CGK",
    "popularity": 75,
    "lat": -6.1256,
    "lng": 106.6558,
    "state": "Banten"
  },
  {
    "name": "Ninoy Aquino International Airport",
    "country": "Philippines",
    "type": "airport",
    "iata": "MNL",
    "popularity": 72,
    "lat": 14.5086,
    "lng": 121.0194,
    "state": "Metro Manila"
  },
  {
    "name": "Kuala Lumpur International Airport",
    "country": "Malaysia",
    "type": "airport",
    "iata": "KUL",
    "popularity": 77,
    "lat": 2.7456,
    "lng": 101.7072,
    "state": "Selangor"
  },
  {
    "name": "Shanghai Pudong International Airport",
    "country": "China",
    "type": "airport",
    "iata": "PVG",
    "popularity": 90,
    "lat": 31.1434,
    "lng": 121.8055,
    "state": "Shanghai"
  },
  {
    "name": "Beijing Capital International Airport",
    "country": "China",
    "type": "airport",
    "iata": "PEK",
    "popularity": 91,
    "lat": 40.0801,
    "lng": 116.5846,
    "state": "Beijing"
  },
  {
    "name": "Guangzhou Baiyun International Airport",
    "country": "China",
    "type": "airport",
    "iata": "CAN",
    "popularity": 72,
    "lat": 23.3924,
    "lng": 113.2988,
    "state": "Guangdong"
  },
  {
    "name": "Shenzhen Bao'an International Airport",
    "country": "China",
    "type": "airport",
    "iata": "SZX",
    "popularity": 70,
    "lat": 22.6393,
    "lng": 113.8109,
    "state": "Guangdong"
  },
  {
    "name": "Toronto Pearson International Airport",
    "country": "Canada",
    "type": "airport",
    "iata": "YYZ",
    "popularity": 79,
    "lat": 43.6777,
    "lng": -79.6248,
    "state": "Ontario"
  },
  {
    "name": "Vancouver International Airport",
    "country": "Canada",
    "type": "airport",
    "iata": "YVR",
    "popularity": 75,
    "lat": 49.1967,
    "lng": -123.1815,
    "state": "British Columbia"
  },
  {
    "name": "Montréal-Pierre Elliott Trudeau International Airport",
    "country": "Canada",
    "type": "airport",
    "iata": "YUL",
    "popularity": 71,
    "lat": 45.4706,
    "lng": -73.7408,
    "state": "Quebec"
  },
  {
    "name": "Mexico City International Airport",
    "country": "Mexico",
    "type": "airport",
    "iata": "MEX",
    "popularity": 80,
    "lat": 19.4363,
    "lng": -99.0721,
    "state": "Mexico City"
  },
  {
    "name": "São Paulo-Guarulhos International Airport",
    "country": "Brazil",
    "type": "airport",
    "iata": "GRU",
    "popularity": 84,
    "lat": -23.4356,
    "lng": -46.4731,
    "state": "São Paulo"
  },
  {
    "name": "Rio de Janeiro-Galeão International Airport",
    "country": "Brazil",
    "type": "airport",
    "iata": "GIG",
    "popularity": 82,
    "lat": -22.8089,
    "lng": -43.2436,
    "state": "Rio de Janeiro"
  },
  {
    "name": "Ezeiza International Airport",
    "country": "Argentina",
    "type": "airport",
    "iata": "EZE",
    "popularity": 76,
    "lat": -34.8222,
    "lng": -58.5358,
    "state": "Buenos Aires"
  },
  {
    "name": "Cairo International Airport",
    "country": "Egypt",
    "type": "airport",
    "iata": "CAI",
    "popularity": 77,
    "lat": 30.1219,
    "lng": 31.4056,
    "state": "Cairo"
  },
  {
    "name": "Murtala Muhammed International Airport",
    "country": "Nigeria",
    "type": "airport",
    "iata": "LOS",
    "popularity": 70,
    "lat": 6.5774,
    "lng": 3.3212,
    "state": "Lagos"
  },
  {
    "name": "Cape Town International Airport",
    "country": "South Africa",
    "type": "airport",
    "iata": "CPT",
    "popularity": 74,
    "lat": -33.9698,
    "lng": 18.5977,
    "state": "Western Cape"
  },
  {
    "name": "O.R. Tambo International Airport",
    "country": "South Africa",
    "type": "airport",
    "iata": "JNB",
    "popularity": 73,
    "lat": -26.1367,
    "lng": 28.2411,
    "state": "Gauteng"
  },
  {
    "name": "Sheremetyevo International Airport",
    "country": "Russia",
    "type": "airport",
    "iata": "SVO",
    "popularity": 81,
    "lat": 55.9726,
    "lng": 37.4146,
    "state": "Moscow"
  },
  {
    "name": "Istanbul Airport",
    "country": "Turkey",
    "type": "airport",
    "iata": "IST",
    "popularity": 85,
    "lat": 41.0151,
    "lng": 28.9795,
    "state": "Istanbul"
  },
  {
    "name": "Leonardo da Vinci–Fiumicino Airport",
    "country": "Italy",
    "type": "airport",
    "iata": "FCO",
    "popularity": 87,
    "lat": 41.8003,
    "lng": 12.2389,
    "state": "Lazio"
  },
  {
    "name": "Milan Malpensa Airport",
    "country": "Italy",
    "type": "airport",
    "iata": "MXP",
    "popularity": 78,
    "lat": 45.6306,
    "lng": 8.7281,
    "state": "Lombardy"
  },
  {
    "name": "Barcelona-El Prat Airport",
    "country": "Spain",
    "type": "airport",
    "iata": "BCN",
    "popularity": 86,
    "lat": 41.2971,
    "lng": 2.0833,
    "state": "Catalonia"
  },
  {
    "name": "Adolfo Suárez Madrid–Barajas Airport",
    "country": "Spain",
    "type": "airport",
    "iata": "MAD",
    "popularity": 83,
    "lat": 40.4719,
    "lng": -3.5626,
    "state": "Community of Madrid"
  },
  {
    "name": "Amsterdam Airport Schiphol",
    "country": "Netherlands",
    "type": "airport",
    "iata": "AMS",
    "popularity": 84,
    "lat": 52.3105,
    "lng": 4.7683,
    "state": "North Holland"
  },
  {
    "name": "Berlin Brandenburg Airport",
    "country": "Germany",
    "type": "airport",
    "iata": "BER",
    "popularity": 82,
    "lat": 52.3667,
    "lng": 13.5033,
    "state": "Brandenburg"
  },
  {
    "name": "Frankfurt Airport",
    "country": "Germany",
    "type": "airport",
    "iata": "FRA",
    "popularity": 77,
    "lat": 50.0379,
    "lng": 8.5622,
    "state": "Hesse"
  },
  {
    "name": "Munich Airport",
    "country": "Germany",
    "type": "airport",
    "iata": "MUC",
    "popularity": 79,
    "lat": 48.3537,
    "lng": 11.7861,
    "state": "Bavaria"
  },
  {
    "name": "Vienna International Airport",
    "country": "Austria",
    "type": "airport",
    "iata": "VIE",
    "popularity": 75,
    "lat": 48.1103,
    "lng": 16.5697,
    "state": "Lower Austria"
  },
  {
    "name": "Zurich Airport",
    "country": "Switzerland",
    "type": "airport",
    "iata": "ZRH",
    "popularity": 78,
    "lat": 47.4647,
    "lng": 8.5492,
    "state": "Zurich"
  },
  {
    "name": "Stockholm Arlanda Airport",
    "country": "Sweden",
    "type": "airport",
    "iata": "ARN",
    "popularity": 72,
    "lat": 59.6519,
    "lng": 17.9186,
    "state": "Stockholm"
  },
  {
    "name": "Copenhagen Airport",
    "country": "Denmark",
    "type": "airport",
    "iata": "CPH",
    "popularity": 73,
    "lat": 55.6181,
    "lng": 12.6561,
    "state": "Capital Region"
  },
  {
    "name": "Oslo Airport",
    "country": "Norway",
    "type": "airport",
    "iata": "OSL",
    "popularity": 70,
    "lat": 60.1939,
    "lng": 11.1004,
    "state": "Viken"
  },
  {
    "name": "Helsinki-Vantaa Airport",
    "country": "Finland",
    "type": "airport",
    "iata": "HEL",
    "popularity": 69,
    "lat": 60.3172,
    "lng": 24.9633,
    "state": "Uusimaa"
  },
  {
    "name": "Warsaw Chopin Airport",
    "country": "Poland",
    "type": "airport",
    "iata": "WAW",
    "popularity": 71,
    "lat": 52.1657,
    "lng": 20.9671,
    "state": "Masovian"
  },
  {
    "name": "Václav Havel Airport Prague",
    "country": "Czech Republic",
    "type": "airport",
    "iata": "PRG",
    "popularity": 76,
    "lat": 50.1107,
    "lng": 14.2635,
    "state": "Central Bohemian"
  },
  {
    "name": "Budapest Ferenc Liszt International Airport",
    "country": "Hungary",
    "type": "airport",
    "iata": "BUD",
    "popularity": 73,
    "lat": 47.4368,
    "lng": 19.2556,
    "state": "Pest"
  },
  {
    "name": "Athens International Airport",
    "country": "Greece",
    "type": "airport",
    "iata": "ATH",
    "popularity": 74,
    "lat": 37.9364,
    "lng": 23.9445,
    "state": "Attica"
  },
  {
    "name": "Ben Gurion Airport",
    "country": "Israel",
    "type": "airport",
    "iata": "TLV",
    "popularity": 75,
    "lat": 32.0114,
    "lng": 34.8867,
    "state": "Central District"
  },
  {
    "name": "Dublin Airport",
    "country": "Ireland",
    "type": "airport",
    "iata": "DUB",
    "popularity": 77,
    "lat": 53.4264,
    "lng": -6.2499,
    "state": "Fingal"
  },
  {
    "name": "Brussels Airport",
    "country": "Belgium",
    "type": "airport",
    "iata": "BRU",
    "popularity": 74,
    "lat": 50.9001,
    "lng": 4.4844,
    "state": "Flemish Brabant"
  },
  {
    "name": "Lisbon Airport",
    "country": "Portugal",
    "type": "airport",
    "iata": "LIS",
    "popularity": 75,
    "lat": 38.7813,
    "lng": -9.1359,
    "state": "Lisbon"
  },
  {
    "name": "San Francisco International Airport",
    "country": "United States",
    "type": "airport",
    "iata": "SFO",
    "popularity": 88,
    "lat": 37.6213,
    "lng": -122.3790,
    "state": "California"
  },
  {
    "name": "Seattle-Tacoma International Airport",
    "country": "United States",
    "type": "airport",
    "iata": "SEA",
    "popularity": 80,
    "lat": 47.4502,
    "lng": -122.3088,
    "state": "Washington"
  },
  {
    "name": "Logan International Airport",
    "country": "United States",
    "type": "airport",
    "iata": "BOS",
    "popularity": 81,
    "lat": 42.3656,
    "lng": -71.0096,
    "state": "Massachusetts"
  },
  {
    "name": "Miami International Airport",
    "country": "United States",
    "type": "airport",
    "iata": "MIA",
    "popularity": 83,
    "lat": 25.7959,
    "lng": -80.2870,
    "state": "Florida"
  },
  {
    "name": "Dallas/Fort Worth International Airport",
    "country": "United States",
    "type": "airport",
    "iata": "DFW",
    "popularity": 78,
    "lat": 32.8998,
    "lng": -97.0403,
    "state": "Texas"
  },
  {
    "name": "George Bush Intercontinental Airport",
    "country": "United States",
    "type": "airport",
    "iata": "IAH",
    "popularity": 76,
    "lat": 29.9902,
    "lng": -95.3368,
    "state": "Texas"
  },
  {
    "name": "Hartsfield-Jackson Atlanta International Airport",
    "country": "United States",
    "type": "airport",
    "iata": "ATL",
    "popularity": 79,
    "lat": 33.6407,
    "lng": -84.4268,
    "state": "Georgia"
  },
  {
    "name": "Denver International Airport",
    "country": "United States",
    "type": "airport",
    "iata": "DEN",
    "popularity": 75,
    "lat": 39.8617,
    "lng": -104.6731,
    "state": "Colorado"
  },
  {
    "name": "Harry Reid International Airport",
    "country": "United States",
    "type": "airport",
    "iata": "LAS",
    "popularity": 82,
    "lat": 36.0840,
    "lng": -115.1537,
    "state": "Nevada"
  },
  {
    "name": "Orlando International Airport",
    "country": "United States",
    "type": "airport",
    "iata": "MCO",
    "popularity": 77,
    "lat": 28.4312,
    "lng": -81.3081,
    "state": "Florida"
  },
  {
    "name": "Philadelphia International Airport",
    "country": "United States",
    "type": "airport",
    "iata": "PHL",
    "popularity": 73,
    "lat": 39.8719,
    "lng": -75.2411,
    "state": "Pennsylvania"
  },
  {
    "name": "Phoenix Sky Harbor International Airport",
    "country": "United States",
    "type": "airport",
    "iata": "PHX",
    "popularity": 74,
    "lat": 33.4484,
    "lng": -112.0740,
    "state": "Arizona"
  },
  {
    "name": "San Diego International Airport",
    "country": "United States",
    "type": "airport",
    "iata": "SAN",
    "popularity": 78,
    "lat": 32.7336,
    "lng": -117.1897,
    "state": "California"
  },
  {
    "name": "Tampa International Airport",
    "country": "United States",
    "type": "airport",
    "iata": "TPA",
    "popularity": 70,
    "lat": 27.9755,
    "lng": -82.5332,
    "state": "Florida"
  }
]
